[
    [
        {
            "address": "Cambridge Leisure Park Clifton Way Cherry Hinton",
            "area": "south",
            "food": "italian",
            "id": "19195",
            "introduction": "frankie and bennys has a traditional 1950s new york feel to it with its original family photographs, traditional wooden furniture and period music. They serve a wide range of authentic american and italian dishes.",
            "location": [
                52.190176,
                0.13699
            ],
            "name": "frankie and bennys",
            "phone": "01223412430",
            "postcode": "cb17dy",
            "pricerange": "expensive",
            "type": "restaurant"
        },
        {
            "address": "Jesus Lane Fen Ditton",
            "area": "centre",
            "food": "italian",
            "id": "19269",
            "introduction": "the simple menu and kitchen concept at pizza express has retained its freshly made ideal, and you can still watch your pizza being prepared for you. This branch has live jazz music",
            "location": [
                52.208252,
                0.119957
            ],
            "name": "pizza express Fen Ditton",
            "phone": "01223324033",
            "postcode": "cb58ba",
            "pricerange": "moderate",
            "type": "restaurant"
        },
        {
            "address": "20 Milton Road Chesterton",
            "area": "north",
            "food": "italian",
            "id": "19259",
            "introduction": "da Vinci pizzeria serve an extensive range of pizza and italian dishes as well as some vegetarian options a takeaway and delivery service is also available",
            "location": [
                52.215311,
                0.12593
            ],
            "name": "da vinci pizzeria",
            "phone": "01223351707",
            "postcode": "cb41jy",
            "pricerange": "cheap",
            "type": "restaurant"
        },
        {
            "address": "G4 Cambridge Leisure Park Clifton Way Cherry Hinton",
            "area": "south",
            "food": "italian",
            "id": "19196",
            "introduction": "pizza hut is a large chain with restaurants nationwide offering convenience pizzas pasta and salads to eat in or take away",
            "location": [
                52.190176,
                0.13699
            ],
            "name": "pizza hut cherry hinton",
            "phone": "01223323737",
            "postcode": "cb17dy",
            "pricerange": "moderate",
            "type": "restaurant"
        },
        {
            "address": "21 - 24 Northampton Road",
            "area": "west",
            "food": "italian",
            "id": "12700",
            "introduction": "",
            "location": [
                52.21032,
                0.11367
            ],
            "name": "prezzo",
            "phone": "01799521260",
            "postcode": "cb30ad",
            "pricerange": "moderate",
            "type": "restaurant"
        },
        {
            "address": "Cambridge Retail Park Newmarket Road Fen Ditton",
            "area": "east",
            "food": "italian",
            "id": "19275",
            "introduction": "pizza hut is a large chain with restaurants nationwide offering convenience pizzas pasta and salads to eat in or take away",
            "location": [
                52.209742,
                0.146975
            ],
            "name": "pizza hut fen ditton",
            "phone": "01223323737",
            "postcode": "cb58wr",
            "pricerange": "moderate",
            "type": "restaurant"
        },
        {
            "address": "15 Magdalene Street City Centre",
            "area": "west",
            "food": "italian",
            "id": "19247",
            "introduction": "la margherita serve a variety of italian and vegetarian dishes at their restaurant",
            "location": [
                52.210226,
                0.115646
            ],
            "name": "la margherita",
            "phone": "01223315232",
            "postcode": "cb30af",
            "pricerange": "cheap",
            "type": "restaurant"
        },
        {
            "address": "Regent Street City Centre",
            "area": "centre",
            "food": "italian",
            "id": "19213",
            "introduction": "the simple menu and kitchen concept at pizza express has retained its freshly made ideal and you can still watch your pizza being prepared for you",
            "location": [
                52.201743,
                0.124843
            ],
            "name": "pizza express",
            "phone": "01223324033",
            "postcode": "cb21db",
            "pricerange": "moderate",
            "type": "restaurant"
        },
        {
            "address": "54 King Street City Centre",
            "area": "centre",
            "food": "italian",
            "id": "19176",
            "introduction": "clowns cafe serve a variety of drinks as well as italian dishes such as pasta ciabatta and salads",
            "location": [
                52.207312,
                0.124201
            ],
            "name": "clowns cafe",
            "phone": "01223355711",
            "postcode": "cb11ln",
            "pricerange": "expensive",
            "type": "restaurant"
        },
        {
            "address": "32 Bridge Street City Centre",
            "area": "centre",
            "food": "italian",
            "id": "19234",
            "introduction": "caffe uno is a chain of cafe style restaurants that offer a wide selection of meals and snacks to suit any time of the day including an extensive breakfast menu and choice of hot or cold drinks",
            "location": [
                52.209632,
                0.117213
            ],
            "name": "caffe uno",
            "phone": "01223448620",
            "postcode": "cb21uj",
            "pricerange": "expensive",
            "type": "restaurant"
        }
    ],
    [
        {
            "address": "G4 Cambridge Leisure Park Clifton Way Cherry Hinton",
            "area": "south",
            "food": "italian",
            "id": "19196",
            "introduction": "pizza hut is a large chain with restaurants nationwide offering convenience pizzas pasta and salads to eat in or take away",
            "location": [
                52.190176,
                0.13699
            ],
            "name": "pizza hut cherry hinton",
            "phone": "01223323737",
            "postcode": "cb17dy",
            "pricerange": "moderate",
            "type": "restaurant"
        },
        {
            "address": "King Street City Centre",
            "area": "centre",
            "food": "turkish",
            "id": "19178",
            "introduction": "efes restaurant serve a variety of turkish dishes including kebabs in truly authentic surroundings.",
            "location": [
                52.207312,
                0.124201
            ],
            "name": "efes restaurant",
            "phone": "01223500005",
            "postcode": "cb11ln",
            "pricerange": "moderate",
            "type": "restaurant"
        },
        {
            "address": "Thompsons Lane Fen Ditton",
            "area": "centre",
            "food": "mediterranean",
            "id": "19268",
            "location": [
                52.210013,
                0.118007
            ],
            "name": "la mimosa",
            "phone": "01223362525",
            "postcode": "cb58aq",
            "pricerange": "expensive",
            "type": "restaurant"
        },
        {
            "address": "11 Peas Hill City Centre",
            "area": "centre",
            "food": "chinese",
            "id": "19242",
            "introduction": "jinling noodle bar serves a wide range of chinese and shanghai dishes reflecting many different flavours and ingredients",
            "location": [
                52.204453,
                0.118693
            ],
            "name": "jinling noodle bar",
            "phone": "01223566188",
            "postcode": "cb23pp",
            "pricerange": "moderate",
            "type": "restaurant"
        },
        {
            "address": "Midsummer Common",
            "area": "centre",
            "food": "british",
            "id": "508",
            "introduction": "",
            "location": [
                52.21251,
                0.12774
            ],
            "name": "midsummer house restaurant",
            "phone": "01223369299",
            "postcode": "cb41ha",
            "pricerange": "expensive",
            "signature": "seared scallops with truffle apple and celeriac",
            "type": "restaurant"
        },
        {
            "address": "Victoria Avenue Chesterton",
            "area": "north",
            "food": "indian",
            "id": "19257",
            "location": [
                52.213853,
                0.125509
            ],
            "name": "royal spice",
            "phone": "01733553355",
            "postcode": "cb41eh",
            "pricerange": "cheap",
            "type": "restaurant"
        },
        {
            "address": "86 Regent Street City Centre",
            "area": "centre",
            "food": "asian oriental",
            "id": "19215",
            "introduction": "j restaurant offers a wide variety of sushi noodles and dim sum to eat in or takeaway a home delivery service is also available",
            "location": [
                52.200187,
                0.126407
            ],
            "name": "j restaurant",
            "phone": "01223307581",
            "postcode": "cb21dp",
            "pricerange": "cheap",
            "type": "restaurant"
        },
        {
            "address": "The Little Rose 37 Trumpington Street",
            "area": "centre",
            "food": "seafood",
            "id": "19223",
            "introduction": "using the freshest seafood from the loch of the same name, loch fyne restaurants serve a variety of shellfish and smoked fish all of which are complimented by an extensive wine list. Non-seafood dishes are also available",
            "location": [
                52.200693,
                0.119744
            ],
            "name": "loch fyne",
            "phone": "01223362433",
            "postcode": "cb21qy",
            "pricerange": "expensive",
            "type": "restaurant"
        },
        {
            "address": "Finders Corner Newmarket Road",
            "area": "east",
            "food": "international",
            "id": "30650",
            "introduction": "",
            "location": [
                52.21768,
                0.224907
            ],
            "name": "the missing sock",
            "phone": "01223812660",
            "postcode": "cb259aq",
            "pricerange": "cheap",
            "signature": "african babooti",
            "type": "restaurant"
        },
        {
            "address": "2G Cambridge Leisure Park Cherry Hinton Road Cherry Hinton",
            "area": "south",
            "food": "mexican",
            "id": "19194",
            "introduction": "chiquito is a chain of inexpensive tex mex restaurants predominantly aimed at tourists. They serve a variety of mexican and north of the border food as well as a range of cocktails",
            "location": [
                52.190176,
                0.13699
            ],
            "name": "chiquito restaurant bar",
            "phone": "01223400170",
            "postcode": "cb17dy",
            "pricerange": "expensive",
            "type": "restaurant"
        }
    ],
    [
        {
            "address": "83 Regent Street",
            "area": "centre",
            "food": "modern european",
            "id": "3697",
            "introduction": "de luca cucina bar in the heart of cambridge is a stylish spot to enjoy food, wine, cocktails and coffee all in a vibrant atmosphere. The cocktail bar at the front is perfect for coffee and light meals in the day and cocktails in the evening. An open kitchen provides real excitement with head chef darren kiegher and his team preparing simply delicious italian food using locally sourced ingredients.",
            "location": [
                52.2002,
                0.1268
            ],
            "name": "de luca cucina and bar",
            "phone": "01223356666",
            "postcode": "cb21aw",
            "pricerange": "moderate",
            "signature": "roasted barbary duck breast served with sweet potato wedges and mange tout with a red wine sauce",
            "type": "restaurant"
        },
        {
            "address": "11 Peas Hill City Centre",
            "area": "centre",
            "food": "chinese",
            "id": "19242",
            "introduction": "jinling noodle bar serves a wide range of chinese and shanghai dishes reflecting many different flavours and ingredients",
            "location": [
                52.204453,
                0.118693
            ],
            "name": "jinling noodle bar",
            "phone": "01223566188",
            "postcode": "cb23pp",
            "pricerange": "moderate",
            "type": "restaurant"
        },
        {
            "address": "Regent Street City Centre",
            "area": "centre",
            "food": "italian",
            "id": "19213",
            "introduction": "the simple menu and kitchen concept at pizza express has retained its freshly made ideal and you can still watch your pizza being prepared for you",
            "location": [
                52.201743,
                0.124843
            ],
            "name": "pizza express",
            "phone": "01223324033",
            "postcode": "cb21db",
            "pricerange": "moderate",
            "type": "restaurant"
        },
        {
            "address": "205 Victoria Road Chesterton",
            "area": "west",
            "food": "indian",
            "id": "19267",
            "location": [
                52.215077,
                0.112421
            ],
            "name": "meghna",
            "phone": "01223727410",
            "postcode": "cb43lf",
            "pricerange": "moderate",
            "type": "restaurant"
        },
        {
            "address": "30 Bridge Street City Centre",
            "area": "centre",
            "food": "turkish",
            "id": "19232",
            "introduction": "anatolia is a basement restaurant that serves a variety of turkish and vegetarian dishes and cater for private parties of up to 80 guests upon request",
            "location": [
                52.209632,
                0.117213
            ],
            "name": "anatolia",
            "phone": "01223362372",
            "postcode": "cb21uj",
            "pricerange": "moderate",
            "type": "restaurant"
        },
        {
            "address": "7 Milton Road Chesterton",
            "area": "north",
            "food": "indian",
            "id": "19263",
            "location": [
                52.215157,
                0.125015
            ],
            "name": "the nirala",
            "phone": "01223360966",
            "postcode": "cb41uy",
            "pricerange": "moderate",
            "type": "restaurant"
        },
        {
            "address": "35 Saint Andrews Street City Centre",
            "area": "centre",
            "food": "international",
            "id": "19235",
            "introduction": "the varsity restaurant serves a variety of international and vegetarian dishes and can cater for private parties of up to 40 guests upon request",
            "location": [
                52.202793,
                0.123488
            ],
            "name": "the varsity restaurant",
            "phone": "01223356060",
            "postcode": "cb23ar",
            "pricerange": "moderate",
            "type": "restaurant"
        },
        {
            "address": "191 Histon Road Chesterton",
            "area": "north",
            "food": "chinese",
            "id": "19265",
            "introduction": "the golden wok serves a variety of traditional chinese meals including sweet and sour dishes as well as rice and noodles",
            "location": [
                52.220757,
                0.111564
            ],
            "name": "golden wok",
            "phone": "01223350688",
            "postcode": "cb43hl",
            "pricerange": "moderate",
            "type": "restaurant"
        },
        {
            "address": "Corn Exchange Street",
            "area": "centre",
            "food": "gastropub",
            "id": "31390",
            "introduction": "",
            "location": [
                52.204424,
                0.12046
            ],
            "name": "the cow pizza kitchen and bar",
            "phone": "01223308871",
            "postcode": "cb23qf",
            "pricerange": "moderate",
            "signature": "wasabi spiked hamburger",
            "type": "restaurant"
        },
        {
            "address": "39 Burleigh Street City Centre",
            "area": "centre",
            "food": "chinese",
            "id": "19173",
            "introduction": "shanghai family restaurant comprises a french cafe on the lower level and a chinese restaurant upstairs",
            "location": [
                52.206111,
                0.132969
            ],
            "name": "shanghai family restaurant",
            "phone": "01223301761",
            "postcode": "cb11dg",
            "pricerange": "moderate",
            "type": "restaurant"
        }
    ],
    [
        {
            "address": "4 Kings Parade City Centre",
            "area": "centre",
            "food": "british",
            "id": "19226",
            "introduction": "the copper kettle serve a variety of english dishes at their restaurant including full english breakfasts lunches, roast dinners and baked potatoes. a takeaway menu is also provided",
            "location": [
                52.204387,
                0.117841
            ],
            "name": "the copper kettle",
            "phone": "01223365068",
            "postcode": "cb21sj",
            "pricerange": "moderate",
            "type": "restaurant"
        },
        {
            "address": "Victoria Avenue Chesterton",
            "area": "north",
            "food": "indian",
            "id": "19257",
            "location": [
                52.213853,
                0.125509
            ],
            "name": "royal spice",
            "phone": "01733553355",
            "postcode": "cb41eh",
            "pricerange": "cheap",
            "type": "restaurant"
        },
        {
            "address": "183 East Road City Centre",
            "area": "centre",
            "food": "british",
            "id": "19171",
            "introduction": "cotto is a restaurant cafe and bakery all rolled in to one. The restaurant upstairs is open for dinner from wednesday to saturday consisting of one menu of between three to five dishes tailored to the day the cafe and bakery offer cakes and other delicacies",
            "location": [
                52.204703,
                0.133238
            ],
            "name": "cotto",
            "phone": "01223302010",
            "postcode": "cb11bg",
            "pricerange": "moderate",
            "type": "restaurant"
        },
        {
            "address": "106 Mill Road City Centre",
            "area": "centre",
            "food": "indian",
            "id": "19184",
            "introduction": "curry queen is the most popular indian restaurant in cambridge serving good indian cuisine including all the usual dishes",
            "location": [
                52.199332,
                0.138395
            ],
            "name": "curry queen",
            "phone": "01223351027",
            "postcode": "cb12bd",
            "pricerange": "expensive",
            "type": "restaurant"
        },
        {
            "address": "Cambridge Leisure Park Clifton Way",
            "area": "south",
            "food": "portuguese",
            "id": "12238",
            "introduction": "It's Nandos",
            "location": [
                52.19017,
                0.13699
            ],
            "name": "nandos",
            "phone": "01223327908",
            "postcode": "cb17dy",
            "pricerange": "cheap",
            "type": "restaurant"
        },
        {
            "address": "St. Michael's Church Trinity Street City Centre",
            "area": "centre",
            "food": "european",
            "id": "19227",
            "introduction": "digby trout is a chain of restaurants that are located in many of london's premier tourist attractions. they serve modern european cuisine and are open for lunch and dinner. situated in st michaels church, michaelhouse cafe serves coffee sandwiches and lunch from a regularly changing menu",
            "location": [
                52.20608,
                0.118215
            ],
            "name": "michaelhouse cafe",
            "phone": "01223309147",
            "postcode": "cb21su",
            "pricerange": "expensive",
            "type": "restaurant"
        },
        {
            "address": "88 Mill Road City Centre",
            "area": "centre",
            "food": "chinese",
            "id": "19185",
            "introduction": "rice house serve a variety of popular chinese dishes at their restaurant",
            "location": [
                52.199332,
                0.138395
            ],
            "name": "rice house",
            "phone": "01223367755",
            "postcode": "cb12bd",
            "pricerange": "cheap",
            "type": "restaurant"
        },
        {
            "address": "1 Kings Parade",
            "area": "centre",
            "food": "british",
            "id": "6941",
            "introduction": "",
            "location": [
                52.20439,
                0.11784
            ],
            "name": "the cambridge chop house",
            "phone": "01223359506",
            "postcode": "cb21sj",
            "pricerange": "expensive",
            "signature": "lamb barnsley chop potato and garlic bake greens and gravy",
            "type": "restaurant"
        }
    ],
    [
        {
            "address": "83 Regent Street",
            "area": "centre",
            "food": "modern european",
            "id": "3697",
            "introduction": "de luca cucina bar in the heart of cambridge is a stylish spot to enjoy food, wine, cocktails and coffee all in a vibrant atmosphere. The cocktail bar at the front is perfect for coffee and light meals in the day and cocktails in the evening. An open kitchen provides real excitement with head chef darren kiegher and his team preparing simply delicious italian food using locally sourced ingredients.",
            "location": [
                52.2002,
                0.1268
            ],
            "name": "de luca cucina and bar",
            "phone": "01223356666",
            "postcode": "cb21aw",
            "pricerange": "moderate",
            "signature": "roasted barbary duck breast served with sweet potato wedges and mange tout with a red wine sauce",
            "type": "restaurant"
        },
        {
            "address": "74 Mill Road City Centre",
            "area": "centre",
            "food": "indian",
            "id": "19180",
            "introduction": "kohinoor serves a variety of indian and vegetarian dishes at their restaurant a takeaway and delivery service is also available",
            "location": [
                52.200422,
                0.135784
            ],
            "name": "kohinoor",
            "phone": "01223323639",
            "postcode": "cb12as",
            "pricerange": "cheap",
            "type": "restaurant"
        },
        {
            "address": "15 - 19 Trumpington Street",
            "area": "centre",
            "food": "european",
            "id": "4607",
            "introduction": "",
            "location": [
                52.19934,
                0.12146
            ],
            "name": "hotel du vin and bistro",
            "phone": "01223227330",
            "postcode": "cb21qa",
            "pricerange": "moderate",
            "signature": "",
            "type": "restaurant"
        },
        {
            "address": "Regent Street City Centre",
            "area": "centre",
            "food": "italian",
            "id": "19210",
            "introduction": "Pizza hut is a large chain with restaurants nationwide offering convenience pizzas pasta and salads to eat in or take away",
            "location": [
                52.20103,
                0.126023
            ],
            "name": "pizza hut city centre",
            "phone": "01223323737",
            "postcode": "cb21ab",
            "pricerange": "cheap",
            "type": "restaurant"
        },
        {
            "address": "33-34 Saint Andrews Street",
            "area": "centre",
            "food": "portuguese",
            "id": "12237",
            "introduction": "",
            "location": [
                52.203,
                0.12375
            ],
            "name": "nandos city centre",
            "phone": "01223327908",
            "postcode": "cb23ar",
            "pricerange": "cheap",
            "type": "restaurant"
        },
        {
            "address": "12 St. Johns Street City Centre",
            "area": "centre",
            "food": "chinese",
            "id": "19228",
            "introduction": "ugly duckling serves a variety of chinese dishes to eat in or take away they also offer 10 percent discount on takeaway orders",
            "location": [
                52.208055,
                0.118397
            ],
            "name": "ugly duckling",
            "postcode": "cb21tw",
            "pricerange": "expensive",
            "type": "restaurant"
        },
        {
            "address": "17 Hills Road City Centre",
            "area": "centre",
            "food": "chinese",
            "id": "19222",
            "introduction": "sesame restaurant and bar offers a wide variety of traditional chinese cuisine for lunch or dinner with wifi access and a television screen in the basement",
            "location": [
                52.197154,
                0.129511
            ],
            "name": "sesame restaurant and bar",
            "phone": "01223358899",
            "postcode": "cb21nw",
            "pricerange": "expensive",
            "type": "restaurant"
        },
        {
            "address": "47-53 Regent Street",
            "area": "centre",
            "food": "italian",
            "id": "29652",
            "introduction": "",
            "location": [
                52.201116,
                0.125712
            ],
            "name": "zizzi cambridge",
            "phone": "01223365599",
            "postcode": "cb21ab",
            "pricerange": "cheap",
            "signature": "piccante rustica pizza, a spicy sausage salami mascarpone and roquito chilli",
            "type": "restaurant"
        },
        {
            "address": "54 King Street City Centre",
            "area": "centre",
            "food": "italian",
            "id": "19176",
            "introduction": "clowns cafe serve a variety of drinks as well as italian dishes such as pasta ciabatta and salads",
            "location": [
                52.207312,
                0.124201
            ],
            "name": "clowns cafe",
            "phone": "01223355711",
            "postcode": "cb11ln",
            "pricerange": "expensive",
            "type": "restaurant"
        },
        {
            "address": "Doubletree by Hilton Cambridge Granta Place Mill Lane",
            "area": "centre",
            "food": "modern european",
            "id": "10347",
            "introduction": "",
            "location": [
                52.20025,
                0.11659
            ],
            "name": "riverside brasserie",
            "phone": "01223259988",
            "postcode": "cb21rt",
            "pricerange": "moderate",
            "type": "restaurant"
        }
    ],
    [
        {
            "address": "31 Newnham Road Newnham",
            "area": "west",
            "food": "indian",
            "id": "19254",
            "introduction": "indian house serve a variety of indian dishes to eat in or take away they also have a selection of english dishes on their menu",
            "location": [
                52.199012,
                0.113196
            ],
            "name": "india house",
            "phone": "01223461661",
            "postcode": "cb39ey",
            "pricerange": "expensive",
            "type": "restaurant"
        },
        {
            "address": "Hills Road City Centre",
            "area": "centre",
            "food": "indian",
            "id": "19220",
            "introduction": "the saffron brasserie serve a variety of dishes from their contemporary indian and bangladeshi menu. Catering for private parties of up to 100 guests is available upon request",
            "location": [
                52.196862,
                0.129248
            ],
            "name": "saffron brasserie",
            "phone": "01223354679",
            "postcode": "cb21la",
            "pricerange": "expensive",
            "type": "restaurant"
        },
        {
            "address": "152 - 154 Hills Road",
            "area": "south",
            "food": "modern european",
            "id": "14731",
            "introduction": "",
            "location": [
                52.18889,
                0.13589
            ],
            "name": "restaurant alimentum",
            "phone": "01223413000",
            "postcode": "cb28pb",
            "pricerange": "moderate",
            "signature": "slowroast sirloin of beef red onion celeriac and garlic",
            "type": "restaurant"
        },
        {
            "address": "20 Milton Road Chesterton",
            "area": "north",
            "food": "italian",
            "id": "19259",
            "introduction": "da Vinci pizzeria serve an extensive range of pizza and italian dishes as well as some vegetarian options a takeaway and delivery service is also available",
            "location": [
                52.215311,
                0.12593
            ],
            "name": "da vinci pizzeria",
            "phone": "01223351707",
            "postcode": "cb41jy",
            "pricerange": "cheap",
            "type": "restaurant"
        },
        {
            "address": "Grafton Hotel 619 Newmarket Road Fen Ditton",
            "area": "east",
            "food": "british",
            "id": "19271",
            "introduction": "located in the grafton hotel this restaurant serves a variety of english and vegetarian dishes from their a la carte and carvery menu. They also have a bar area",
            "location": [
                52.212992,
                0.157569
            ],
            "name": "grafton hotel restaurant",
            "phone": "01223241387",
            "postcode": "cb58pa",
            "pricerange": "expensive",
            "type": "restaurant"
        },
        {
            "address": "Quayside Off Bridge Street",
            "area": "centre",
            "food": "modern european",
            "id": "7236",
            "introduction": "",
            "location": [
                52.20984,
                0.11793
            ],
            "name": "the river bar steakhouse and grill",
            "phone": "01223307030",
            "postcode": "cb58aq",
            "pricerange": "cheap",
            "signature": "lobster mac and cheese",
            "type": "restaurant"
        },
        {
            "address": "21 - 24 Northampton Road",
            "area": "west",
            "food": "italian",
            "id": "12700",
            "introduction": "",
            "location": [
                52.21032,
                0.11367
            ],
            "name": "prezzo",
            "phone": "01799521260",
            "postcode": "cb30ad",
            "pricerange": "moderate",
            "type": "restaurant"
        },
        {
            "address": "82 Cherry Hinton Road Cherry Hinton",
            "area": "south",
            "food": "chinese",
            "id": "19192",
            "location": [
                52.188528,
                0.140627
            ],
            "name": "the good luck chinese food takeaway",
            "phone": "01223244149",
            "postcode": "cb17ag",
            "pricerange": "expensive",
            "type": "restaurant"
        },
        {
            "address": "22 Chesterton Road Chesterton",
            "area": "north",
            "food": "french",
            "id": "19264",
            "location": [
                52.213742,
                0.1242
            ],
            "name": "restaurant two two",
            "phone": "01223351880",
            "postcode": "cb43ax",
            "pricerange": "expensive",
            "type": "restaurant"
        },
        {
            "address": "Finders Corner Newmarket Road",
            "area": "east",
            "food": "international",
            "id": "30650",
            "introduction": "",
            "location": [
                52.21768,
                0.224907
            ],
            "name": "the missing sock",
            "phone": "01223812660",
            "postcode": "cb259aq",
            "pricerange": "cheap",
            "signature": "african babooti",
            "type": "restaurant"
        }
    ]
]